city,state,population,median_income,car_ownership_rate,online_adoption,lat,lon
Austin,TX,965000,78000,0.85,0.60,30.2672,-97.7431
Phoenix,AZ,1600000,72000,0.88,0.55,33.4484,-112.0740
Nashville,TN,715000,69000,0.83,0.50,36.1627,-86.7816
Richmond,VA,230000,68000,0.82,0.48,37.5407,-77.4360
Orlando,FL,320000,65000,0.84,0.52,28.5383,-81.3792